<?xml version="1.0" encoding="UTF-8"?>
<settings>
<servers><server url="http://tpv3-1.speedtest.idv.tw:8080/speedtest/upload.php" lat="25.0333" lon="121.5333" name="Taipei" country="Taiwan" cc="TW" sponsor="Chief Telecom" id="3967"  host="tpv3-1.speedtest.idv.tw:8080" />
<server url="http://tp1.chtm.hinet.net:8080/speedtest/upload.php" lat="25.0333" lon="121.5333" name="Taipei" country="Taiwan" cc="TW" sponsor="Chunghwa Mobile" id="18445"  host="tp1.chtm.hinet.net:8080" />
<server url="http://spttp1.taiwanmobile.com:8080/speedtest/upload.php" lat="25.0333" lon="121.5333" name="Taipei" country="Taiwan" cc="TW" sponsor="Taiwan Mobile" id="11703"  host="spttp1.taiwanmobile.com:8080" />
<server url="http://tfnst01.tfn.net.tw:8080/speedtest/upload.php" lat="25.0333" lon="121.5333" name="Taipei" country="Taiwan" cc="TW" sponsor="Taiwan Fixed Network" id="2133"  host="tfnst01.tfn.net.tw:8080" />
<server url="http://ntp-sptest.kbro.com.tw:8080/speedtest/upload.php" lat="25.0333" lon="121.5333" name="Taipei" country="Taiwan" cc="TW" sponsor="kbro Co., Ltd." id="2181"  host="ntp-sptest.kbro.com.tw:8080" />
<server url="http://qw-tpspt1.wifly.com.tw:8080/speedtest/upload.php" lat="25.0333" lon="121.5333" name="Taipei" country="Taiwan" cc="TW" sponsor="WiFly" id="18421"  host="qw-tpspt1.wifly.com.tw:8080" />
<server url="http://speedtest1.taipeinet.com.tw:8080/speedtest/upload.php" lat="25.0333" lon="121.5333" name="Taipei" country="Taiwan" cc="TW" sponsor="Taipeinet" id="7429"  host="speedtest1.taipeinet.com.tw:8080" />
<server url="http://tp-speedtest.bbtv.tw:8080/speedtest/upload.php" lat="25.0333" lon="121.5333" name="Taipei" country="Taiwan" cc="TW" sponsor="Homeplus" id="24429"  host="tp-speedtest.bbtv.tw:8080" />
<server url="http://speedtest.dongfong.com.tw:8080/speedtest/upload.php" lat="25.0333" lon="121.5333" name="Taipei" country="Taiwan" cc="TW" sponsor="DFT" id="35066"  host="speedtest.dongfong.com.tw:8080" />
<server url="http://qaspeedtest.dyndns.info:8080/speedtest/upload.php" lat="25.0333" lon="121.5333" name="Taipei" country="Taiwan" cc="TW" sponsor="Pikachu_Qserver" id="30370"  host="qaspeedtest.dyndns.info:8080" />
<server url="http://speedtest.imcloud.tw:8080/speedtest/upload.php" lat="25.0333" lon="121.5333" name="Taipei" country="Taiwan" cc="TW" sponsor="Sky Digital Co., Ltd" id="36071"  host="speedtest.imcloud.tw:8080" />
<server url="http://spt1.askey.ga:8080/speedtest/upload.php" lat="25.0333" lon="121.5333" name="Taipei" country="Taiwan" cc="TW" sponsor="AKEYNET" id="39460"  host="spt1.askey.ga:8080" />
<server url="http://wd-speedtest.bbtv.tw:8080/speedtest/upload.php" lat="25.0262" lon="121.5427" name="Daan District" country="Taiwan" cc="TW" sponsor="Homeplus" id="29288"  host="wd-speedtest.bbtv.tw:8080" />
<server url="http://sptdad.taiwanmobile.com:8080/speedtest/upload.php" lat="25.0249" lon="121.5434" name="Da'an District" country="Taiwan" cc="TW" sponsor="Taiwan Mobile" id="38330"  host="sptdad.taiwanmobile.com:8080" />
<server url="http://speedtest.taifo.com.tw:8080/speedtest/upload.php" lat="25.0374" lon="121.5635" name="Taipei" country="Taiwan" cc="TW" sponsor="TAIFO Taiwan" id="13506"  host="speedtest.taifo.com.tw:8080" />
<server url="http://lg-speedtest.bbtv.tw:8080/speedtest/upload.php" lat="25.0689" lon="121.5909" name="Neihu District" country="Taiwan" cc="TW" sponsor="Homeplus" id="29716"  host="lg-speedtest.bbtv.tw:8080" />
<server url="http://fetsz1.seed.net.tw:8080/speedtest/upload.php" lat="24.9962" lon="121.4853" name="Zhonghe" country="TW" cc="TW" sponsor="FarEasTone Telecom" id="17265"  host="fetsz1.seed.net.tw:8080" />
<server url="http://speedtest.wdtcinfo.com:8080/speedtest/upload.php" lat="25.0170" lon="121.4628" name="New Taipei City" country="Taiwan" cc="TW" sponsor="WDTCINFO" id="37611"  host="speedtest.wdtcinfo.com:8080" />
<server url="http://sky-speedtest.bbtv.tw:8080/speedtest/upload.php" lat="25.0114" lon="121.4618" name="Banqiao" country="Taiwan" cc="TW" sponsor="Homeplus" id="24461"  host="sky-speedtest.bbtv.tw:8080" />
<server url="http://qw-ntpspt1.wifly.com.tw:8080/speedtest/upload.php" lat="25.0114" lon="121.4618" name="Banqiao" country="Taiwan" cc="TW" sponsor="WiFly" id="18422"  host="qw-ntpspt1.wifly.com.tw:8080" />
<server url="http://ntpv3-1.speedtest.idv.tw:8080/speedtest/upload.php" lat="25.0111" lon="121.4458" name="New Taipei" country="Taiwan" cc="TW" sponsor="Chief Telecom" id="4505"  host="ntpv3-1.speedtest.idv.tw:8080" />
<server url="http://tstarntp1.vibo.net.tw:8080/speedtest/upload.php" lat="25.0111" lon="121.4458" name="Taipei" country="Taiwan" cc="TW" sponsor="Taiwan Star Telecom Co., Ltd." id="5334"  host="tstarntp1.vibo.net.tw:8080" />
<server url="http://ntp1.chtm.hinet.net:8080/speedtest/upload.php" lat="25.0111" lon="121.4458" name="New Taipei" country="Taiwan" cc="TW" sponsor="Chunghwa Mobile" id="18447"  host="ntp1.chtm.hinet.net:8080" />
<server url="http://ntpspt2.friday.tw:8080/speedtest/upload.php" lat="25.0111" lon="121.4458" name="New Taipei" country="Taiwan" cc="TW" sponsor="Friday Media" id="19211"  host="ntpspt2.friday.tw:8080" />
<server url="http://sb-speedtest-1.twmbroadband.net:8080/speedtest/upload.php" lat="25.0111" lon="121.4458" name="New Taipei" country="Taiwan" cc="TW" sponsor="TFN Media" id="12583"  host="sb-speedtest-1.twmbroadband.net:8080" />
<server url="http://srv5.speedtest.aptg.com.tw:8080/speedtest/upload.php" lat="25.0111" lon="121.4458" name="New Taipei" country="Taiwan" cc="TW" sponsor="Asia Pacific Telecom" id="29106"  host="srv5.speedtest.aptg.com.tw:8080" />
<server url="http://ntp-speedtest.bbtv.tw:8080/speedtest/upload.php" lat="25.0111" lon="121.4458" name="New Taipei" country="Taiwan" cc="TW" sponsor="Homeplus" id="24460"  host="ntp-speedtest.bbtv.tw:8080" />
<server url="http://gh-speedtest.bbtv.tw:8080/speedtest/upload.php" lat="24.9816" lon="121.4199" name="Shulin District" country="Taiwan" cc="TW" sponsor="Homeplus" id="29283"  host="gh-speedtest.bbtv.tw:8080" />
<server url="http://klv3-1.speedtest.idv.tw:8080/speedtest/upload.php" lat="25.1276" lon="121.7392" name="Keelung" country="Taiwan" cc="TW" sponsor="Chief Telecom" id="18475"  host="klv3-1.speedtest.idv.tw:8080" />
<server url="http://kl-speedtest.bbtv.tw:8080/speedtest/upload.php" lat="25.1276" lon="121.7392" name="Keelung" country="Taiwan" cc="TW" sponsor="Homeplus" id="24974"  host="kl-speedtest.bbtv.tw:8080" />
<server url="http://tyv3-1.speedtest.idv.tw:8080/speedtest/upload.php" lat="25.0764" lon="121.2239" name="Taoyuan" country="Taiwan" cc="TW" sponsor="Chief Telecom" id="4938"  host="tyv3-1.speedtest.idv.tw:8080" />
<server url="http://ty-speedtest.bbtv.tw:8080/speedtest/upload.php" lat="25.0764" lon="121.2239" name="Taoyuan" country="Taiwan" cc="TW" sponsor="Homeplus" id="24462"  host="ty-speedtest.bbtv.tw:8080" />
<server url="http://srv6.speedtest.aptg.com.tw:8080/speedtest/upload.php" lat="25.0764" lon="121.2239" name="Taoyuan" country="Taiwan" cc="TW" sponsor="Asia Pacific Telecom" id="29107"  host="srv6.speedtest.aptg.com.tw:8080" />
<server url="http://sptty1.taiwanmobile.com:8080/speedtest/upload.php" lat="25.0764" lon="121.2239" name="Taoyuan" country="Taiwan" cc="TW" sponsor="Taiwan Mobile" id="11702"  host="sptty1.taiwanmobile.com:8080" />
<server url="http://ty1.chtm.hinet.net:8080/speedtest/upload.php" lat="25.0764" lon="121.2239" name="Taoyuan" country="Taiwan" cc="TW" sponsor="Chunghwa Mobile" id="18452"  host="ty1.chtm.hinet.net:8080" />
<server url="http://srv7.speedtest.aptg.com.tw:8080/speedtest/upload.php" lat="24.6938" lon="121.7750" name="Yilan" country="Taiwan" cc="TW" sponsor="Asia Pacific Telecom" id="29108"  host="srv7.speedtest.aptg.com.tw:8080" />
<server url="http://ylv3-1.speedtest.idv.tw:8080/speedtest/upload.php" lat="24.6938" lon="121.7750" name="Yilan" country="Taiwan" cc="TW" sponsor="Chief Telecom" id="4947"  host="ylv3-1.speedtest.idv.tw:8080" />
<server url="http://fetkgx1.seed.net.tw:8080/speedtest/upload.php" lat="24.8347" lon="120.9934" name="Zhubei City" country="Taiwan" cc="TW" sponsor="FarEasTone Telecom" id="17206"  host="fetkgx1.seed.net.tw:8080" />
<server url="http://hcv3-1.speedtest.idv.tw:8080/speedtest/upload.php" lat="24.8167" lon="120.9833" name="Hsinchu" country="Taiwan" cc="TW" sponsor="Chief Telecom" id="4939"  host="hcv3-1.speedtest.idv.tw:8080" />
<server url="http://hc1.chtm.hinet.net:8080/speedtest/upload.php" lat="24.8167" lon="120.9833" name="Hsinchu" country="Taiwan" cc="TW" sponsor="Chunghwa Mobile" id="18450"  host="hc1.chtm.hinet.net:8080" />
<server url="http://spthc1.taiwanmobile.com:8080/speedtest/upload.php" lat="24.8167" lon="120.9833" name="Hsinchu" country="Taiwan" cc="TW" sponsor="Taiwan Mobile" id="11705"  host="spthc1.taiwanmobile.com:8080" />
<server url="http://spthl1.seed.net.tw:8080/speedtest/upload.php" lat="23.9722" lon="121.6064" name="Hualien" country="Taiwan" cc="TW" sponsor="Far EasTone Telecommunications Co., Ltd" id="2595"  host="spthl1.seed.net.tw:8080" />
<server url="http://hlv3-1.speedtest.idv.tw:8080/speedtest/upload.php" lat="23.9722" lon="121.6064" name="Hualien" country="Taiwan" cc="TW" sponsor="Chief Telecom" id="4948"  host="hlv3-1.speedtest.idv.tw:8080" />
<server url="http://spthl1.taiwanmobile.com:8080/speedtest/upload.php" lat="23.9722" lon="121.6064" name="Hualien" country="Taiwan" cc="TW" sponsor="Taiwan Mobile" id="11708"  host="spthl1.taiwanmobile.com:8080" />
<server url="http://custom.tbcnet.net.tw:8080/speedtest/upload.php" lat="24.1500" lon="120.6667" name="Taichung" country="Taiwan" cc="TW" sponsor="TBC" id="12000"  host="custom.tbcnet.net.tw:8080" />
<server url="http://spt.oms.fcu.edu.tw:8080/speedtest/upload.php" lat="24.1500" lon="120.6667" name="Taichung" country="Taiwan" cc="TW" sponsor="Feng Chia University" id="7076"  host="spt.oms.fcu.edu.tw:8080" />
<server url="http://tcv3-1.speedtest.idv.tw:8080/speedtest/upload.php" lat="24.1500" lon="120.6667" name="Taichung" country="Taiwan" cc="TW" sponsor="Chief Telecom" id="4940"  host="tcv3-1.speedtest.idv.tw:8080" />
<server url="http://speed1.asia.edu.tw:8080/speedtest/upload.php" lat="24.1500" lon="120.6667" name="Taichung" country="Taiwan" cc="TW" sponsor="Asia University, Taiwan" id="6391"  host="speed1.asia.edu.tw:8080" />
<server url="http://tc1.chtm.hinet.net:8080/speedtest/upload.php" lat="24.1500" lon="120.6667" name="Taichung" country="Taiwan" cc="TW" sponsor="Chunghwa Mobile" id="18456"  host="tc1.chtm.hinet.net:8080" />
<server url="http://speedtest.thu.edu.tw:8080/speedtest/upload.php" lat="24.1500" lon="120.6667" name="Taichung" country="Taiwan" cc="TW" sponsor="Tunghai University" id="6597"  host="speedtest.thu.edu.tw:8080" />
<server url="http://61.60.226.1:8080/speedtest/upload.php" lat="24.1500" lon="120.6667" name="Taichung" country="Taiwan" cc="TW" sponsor="TINP" id="7469"  host="61.60.226.1:8080" />
<server url="http://spttc1.taiwanmobile.com:8080/speedtest/upload.php" lat="24.1500" lon="120.6667" name="Taichung" country="Taiwan" cc="TW" sponsor="Taiwan Mobile" id="11707"  host="spttc1.taiwanmobile.com:8080" />
<server url="http://ntv3-1.speedtest.idv.tw:8080/speedtest/upload.php" lat="23.9610" lon="120.9719" name="Nantou" country="Taiwan" cc="TW" sponsor="Chief Telecom" id="18477"  host="ntv3-1.speedtest.idv.tw:8080" />
<server url="http://fetyl1.seed.net.tw:8080/speedtest/upload.php" lat="23.9596" lon="120.5855" name="Yuanlin City" country="Taiwan" cc="TW" sponsor="FarEasTone Telecom" id="17204"  host="fetyl1.seed.net.tw:8080" />
<server url="http://chv3-1.speedtest.idv.tw:8080/speedtest/upload.php" lat="23.9333" lon="120.5333" name="Changhua" country="Taiwan" cc="TW" sponsor="Chief Telecom" id="5164"  host="chv3-1.speedtest.idv.tw:8080" />
<server url="http://ch1.chtm.hinet.net:8080/speedtest/upload.php" lat="23.9333" lon="120.5333" name="Changhua" country="Taiwan" cc="TW" sponsor="Chunghwa Mobile" id="18611"  host="ch1.chtm.hinet.net:8080" />
<server url="http://speedtest.ctranstech.com:8080/speedtest/upload.php" lat="23.6978" lon="120.9605" name="Taiwan" country="Taiwan" cc="TW" sponsor="CRN" id="32288"  host="speedtest.ctranstech.com:8080" />
<server url="http://centos.ctranstech.com:8080/speedtest/upload.php" lat="23.6978" lon="120.9605" name="Taiwan" country="Taiwan" cc="TW" sponsor="CRN-Asia-F" id="35876"  host="centos.ctranstech.com:8080" />
<server url="http://sptdl1.taiwanmobile.com:8080/speedtest/upload.php" lat="23.7078" lon="120.5409" name="Douliu" country="Taiwan" cc="TW" sponsor="Taiwan Mobile" id="11699"  host="sptdl1.taiwanmobile.com:8080" />
<server url="http://dlv3-1.speedtest.idv.tw:8080/speedtest/upload.php" lat="23.7078" lon="120.5409" name="Douliu" country="Taiwan" cc="TW" sponsor="Chief Telecom" id="18478"  host="dlv3-1.speedtest.idv.tw:8080" />
<server url="http://cyv3-1.speedtest.idv.tw:8080/speedtest/upload.php" lat="23.4801" lon="120.4491" name="Chiayi" country="Taiwan" cc="TW" sponsor="Chief Telecom" id="18479"  host="cyv3-1.speedtest.idv.tw:8080" />
<server url="http://hyv3-1.speedtest.idv.tw:8080/speedtest/upload.php" lat="23.3120" lon="120.3040" name="Hsinying" country="Taiwan" cc="TW" sponsor="Chief Telecom" id="4945"  host="hyv3-1.speedtest.idv.tw:8080" />
<server url="http://speedtest1.fj.chinamobile.com:8080/speedtest/upload.php" lat="26.0761" lon="119.3064" name="Fuzhou" country="China" cc="CN" sponsor="Fuzhou China Mobile,Fujian" id="16171"  host="speedtest1.fj.chinamobile.com:8080" />
<server url="http://upload1.testspeed.kaopuyun.com:8080/speedtest/upload.php" lat="26.0761" lon="119.3064" name="Fuzhou" country="China" cc="CN" sponsor="China Unicom FuJian" id="4884"  host="upload1.testspeed.kaopuyun.com:8080" />
<server url="http://ttv3-1.speedtest.idv.tw:8080/speedtest/upload.php" lat="22.7546" lon="121.1138" name="Taitung" country="Taiwan" cc="TW" sponsor="Chief Telecom" id="18480"  host="ttv3-1.speedtest.idv.tw:8080" />
<server url="http://tnookla.tn.edu.tw:8080/speedtest/upload.php" lat="22.9997" lon="120.2270" name="Tainan" country="Taiwan" cc="TW" sponsor="TNIC" id="32319"  host="tnookla.tn.edu.tw:8080" />
<server url="http://spttn1.taiwanmobile.com:8080/speedtest/upload.php" lat="22.9833" lon="120.1833" name="Tainan" country="Taiwan" cc="TW" sponsor="Taiwan Mobile" id="11711"  host="spttn1.taiwanmobile.com:8080" />
<server url="http://tn-speedtest.bbtv.tw:8080/speedtest/upload.php" lat="22.9833" lon="120.1833" name="Tainan" country="Taiwan" cc="TW" sponsor="Homeplus" id="24377"  host="tn-speedtest.bbtv.tw:8080" />
<server url="http://tnv3-1.speedtest.idv.tw:8080/speedtest/upload.php" lat="22.9833" lon="120.1833" name="Tainan" country="Taiwan" cc="TW" sponsor="Chief Telecom" id="4413"  host="tnv3-1.speedtest.idv.tw:8080" />
<server url="http://tn1.chtm.hinet.net:8080/speedtest/upload.php" lat="22.9833" lon="120.1833" name="Tainan" country="Taiwan" cc="TW" sponsor="Chunghwa Mobile" id="18607"  host="tn1.chtm.hinet.net:8080" />
<server url="http://tnspt1.friday.tw:8080/speedtest/upload.php" lat="22.9833" lon="120.1833" name="Tainan" country="Taiwan" cc="TW" sponsor="Friday Media" id="19032"  host="tnspt1.friday.tw:8080" />
<server url="http://speedtestookla.hya.tw:8080/speedtest/upload.php" lat="22.9833" lon="120.1833" name="Tainan" country="Taiwan" cc="TW" sponsor="HYA" id="36122"  host="speedtestookla.hya.tw:8080" />
<server url="http://sc-speedtest.bbtv.tw:8080/speedtest/upload.php" lat="22.9564" lon="120.1878" name="Tainan South District" country="Taiwan" cc="TW" sponsor="Homeplus" id="29284"  host="sc-speedtest.bbtv.tw:8080" />
<server url="http://chtedesk.ptc.edu.tw:8080/speedtest/upload.php" lat="22.6761" lon="120.4942" name="Pingtung" country="Taiwan" cc="TW" sponsor="PTC" id="30349"  host="chtedesk.ptc.edu.tw:8080" />
<server url="http://ptv3-1.speedtest.idv.tw:8080/speedtest/upload.php" lat="22.6761" lon="120.4942" name="Pingtung" country="Taiwan" cc="TW" sponsor="Chief Telecom" id="4946"  host="ptv3-1.speedtest.idv.tw:8080" />
<server url="http://gd-speedtest.bbtv.tw:8080/speedtest/upload.php" lat="22.6269" lon="120.3263" name="Kaohsiung Lingya" country="Taiwan" cc="TW" sponsor="Homeplus" id="29253"  host="gd-speedtest.bbtv.tw:8080" />
<server url="http://seednet-ks1.seed.net.tw:8080/speedtest/upload.php" lat="22.6269" lon="120.3263" name="Kaohsiung Lingya" country="Taiwan" cc="TW" sponsor="SEEDNET" id="36636"  host="seednet-ks1.seed.net.tw:8080" />
<server url="http://ks-speedtest.bbtv.tw:8080/speedtest/upload.php" lat="22.6333" lon="120.2667" name="Kaohsiung" country="Taiwan" cc="TW" sponsor="Homeplus" id="8968"  host="ks-speedtest.bbtv.tw:8080" />
<server url="http://khv3-1.speedtest.idv.tw:8080/speedtest/upload.php" lat="22.6333" lon="120.2667" name="Kaohsiung" country="Taiwan" cc="TW" sponsor="Chief Telecom" id="4941"  host="khv3-1.speedtest.idv.tw:8080" />
<server url="http://sptkh1.taiwanmobile.com:8080/speedtest/upload.php" lat="22.6333" lon="120.2667" name="Kaohsiung" country="Taiwan" cc="TW" sponsor="Taiwan Mobile" id="11713"  host="sptkh1.taiwanmobile.com:8080" />
<server url="http://qw-ksspt1.wifly.com.tw:8080/speedtest/upload.php" lat="22.6333" lon="120.2667" name="Kaohsiung" country="Taiwan" cc="TW" sponsor="WiFly" id="18426"  host="qw-ksspt1.wifly.com.tw:8080" />
<server url="http://kh1.chtm.hinet.net:8080/speedtest/upload.php" lat="22.6333" lon="120.2667" name="Kaohsiung" country="Taiwan" cc="TW" sponsor="Chunghwa Mobile" id="18458"  host="kh1.chtm.hinet.net:8080" />
<server url="http://tstarkh1.vibo.net.tw:8080/speedtest/upload.php" lat="22.6333" lon="120.2667" name="Kaohsiung" country="Taiwan" cc="TW" sponsor="Taiwan Star Telecom Co., Ltd." id="38059"  host="tstarkh1.vibo.net.tw:8080" />
<server url="http://ltetest3.139site.com:8080/speedtest/upload.php" lat="29.8667" lon="121.5500" name="Ningbo" country="China" cc="CN" sponsor="China Mobile Zhejiang 5G" id="6715"  host="ltetest3.139site.com:8080" />
<server url="http://122.229.136.10:8080/speedtest/upload.php" lat="30.2500" lon="120.1667" name="Hangzhou" country="China" cc="CN" sponsor="China Telecom ZheJiang Branch" id="7509"  host="122.229.136.10:8080" />
<server url="http://ltetest1.139site.com:8080/speedtest/upload.php" lat="30.2500" lon="120.1667" name="Hangzhou" country="China" cc="CN" sponsor="China Mobile Group Zhejiang Co.,Ltd" id="4647"  host="ltetest1.139site.com:8080" />
<server url="http://hz5gsp2.zj186.com:8080/speedtest/upload.php" lat="30.2500" lon="120.1667" name="Hangzhou" country="China" cc="CN" sponsor="China Unicom ZheJiang 5G" id="33995"  host="hz5gsp2.zj186.com:8080" />
<server url="http://speedtest-xg-lq.glbb.ne.jp:8080/speedtest/upload.php" lat="26.2122" lon="127.6792" name="Naha City" country="Japan" cc="JP" sponsor="Lequios" id="30230"  host="speedtest-xg-lq.glbb.ne.jp:8080" />
<server url="http://speedtest-xg-oki.glbb.ne.jp:8080/speedtest/upload.php" lat="26.2122" lon="127.6792" name="Naha" country="Japan" cc="JP" sponsor="GLBB Japan" id="21118"  host="speedtest-xg-oki.glbb.ne.jp:8080" />
<server url="http://sp7.atcc-gns.net:8080/speedtest/upload.php" lat="26.1202" lon="127.7025" name="Okinawa" country="Japan" cc="JP" sponsor="Allied Telesis Capital Corp." id="31181"  host="sp7.atcc-gns.net:8080" />
<server url="http://speed.mydns.jp:8080/speedtest/upload.php" lat="26.1911" lon="127.7286" name="Haebaru" country="Japan" cc="JP" sponsor="haza" id="6581"  host="speed.mydns.jp:8080" />
<server url="http://b-speed02.jptransit.net:8080/speedtest/upload.php" lat="26.2815" lon="127.7785" name="Ginowan" country="Japan" cc="JP" sponsor="Boingo Wireless" id="34942"  host="b-speed02.jptransit.net:8080" />
<server url="http://5g.shunicomtest.com:8080/speedtest/upload.php" lat="31.2000" lon="121.5000" name="ShangHai" country="China" cc="CN" sponsor="China Unicom 5G" id="24447"  host="5g.shunicomtest.com:8080" />
<server url="http://speedtest1.online.sh.cn:8080/speedtest/upload.php" lat="31.2000" lon="121.5000" name="Shanghai" country="China" cc="CN" sponsor="China Telecom" id="3633"  host="speedtest1.online.sh.cn:8080" />
<server url="http://speedtest4.sh.chinamobile.com:8080/speedtest/upload.php" lat="31.2000" lon="121.5000" name="Shanghai" country="China" cc="CN" sponsor="Chinamobile-5G" id="25637"  host="speedtest4.sh.chinamobile.com:8080" />
<server url="http://4gsuzhou1.speedtest.jsinfo.net:8080/speedtest/upload.php" lat="31.2990" lon="120.5853" name="Suzhou" country="China" cc="CN" sponsor="China Telecom JiangSu 5G" id="5396"  host="4gsuzhou1.speedtest.jsinfo.net:8080" />
<server url="http://speed.wcell.cn:8080/speedtest/upload.php" lat="31.2990" lon="120.5853" name="Suzhou" country="China" cc="CN" sponsor="China Mobile Suzhou 5G" id="40131"  host="speed.wcell.cn:8080" />
<server url="http://speedtest.dukekunshan.edu.cn:8080/speedtest/upload.php" lat="31.3856" lon="120.9807" name="Kunshan" country="China" cc="CN" sponsor="Duke Kunshan University" id="30852"  host="speedtest.dukekunshan.edu.cn:8080" />
<server url="http://cmnet-speed.com:8080/speedtest/upload.php" lat="31.5667" lon="120.3000" name="Wuxi" country="China" cc="CN" sponsor="China Mobile 5G" id="26850"  host="cmnet-speed.com:8080" />
<server url="http://changzhou.bestlink.com.cn:8080/speedtest/upload.php" lat="31.8112" lon="119.9741" name="ChangZhou" country="China" cc="CN" sponsor="China Mobile 5G" id="32291"  host="changzhou.bestlink.com.cn:8080" />
</servers>
</settings>
