<?xml version="1.0" encoding="UTF-8"?>
<settings>
<servers>
<server url="http://speedtest1.fj.chinamobile.com:8080/speedtest/upload.php" lat="26.0761" lon="119.3064" name="Fuzhou" country="China" cc="CN" sponsor="Fuzhou China Mobile,Fujian" id="16171"  host="speedtest1.fj.chinamobile.com:8080" />
<server url="http://upload1.testspeed.kaopuyun.com:8080/speedtest/upload.php" lat="26.0761" lon="119.3064" name="Fuzhou" country="China" cc="CN" sponsor="China Unicom FuJian" id="4884"  host="upload1.testspeed.kaopuyun.com:8080" />
<server url="http://ltetest3.139site.com:8080/speedtest/upload.php" lat="29.8667" lon="121.5500" name="Ningbo" country="China" cc="CN" sponsor="China Mobile Zhejiang 5G" id="6715"  host="ltetest3.139site.com:8080" />
<server url="http://122.229.136.10:8080/speedtest/upload.php" lat="30.2500" lon="120.1667" name="Hangzhou" country="China" cc="CN" sponsor="China Telecom ZheJiang Branch" id="7509"  host="122.229.136.10:8080" />
<server url="http://ltetest1.139site.com:8080/speedtest/upload.php" lat="30.2500" lon="120.1667" name="Hangzhou" country="China" cc="CN" sponsor="China Mobile Group Zhejiang Co.,Ltd" id="4647"  host="ltetest1.139site.com:8080" />
<server url="http://hz5gsp2.zj186.com:8080/speedtest/upload.php" lat="30.2500" lon="120.1667" name="Hangzhou" country="China" cc="CN" sponsor="China Unicom ZheJiang 5G" id="33995"  host="hz5gsp2.zj186.com:8080" />
<server url="http://5g.shunicomtest.com:8080/speedtest/upload.php" lat="31.2000" lon="121.5000" name="ShangHai" country="China" cc="CN" sponsor="China Unicom 5G" id="24447"  host="5g.shunicomtest.com:8080" />
<server url="http://speedtest1.online.sh.cn:8080/speedtest/upload.php" lat="31.2000" lon="121.5000" name="Shanghai" country="China" cc="CN" sponsor="China Telecom" id="3633"  host="speedtest1.online.sh.cn:8080" />
<server url="http://speedtest4.sh.chinamobile.com:8080/speedtest/upload.php" lat="31.2000" lon="121.5000" name="Shanghai" country="China" cc="CN" sponsor="Chinamobile-5G" id="25637"  host="speedtest4.sh.chinamobile.com:8080" />
<server url="http://4gsuzhou1.speedtest.jsinfo.net:8080/speedtest/upload.php" lat="31.2990" lon="120.5853" name="Suzhou" country="China" cc="CN" sponsor="China Telecom JiangSu 5G" id="5396"  host="4gsuzhou1.speedtest.jsinfo.net:8080" />
<server url="http://speed.wcell.cn:8080/speedtest/upload.php" lat="31.2990" lon="120.5853" name="Suzhou" country="China" cc="CN" sponsor="China Mobile Suzhou 5G" id="40131"  host="speed.wcell.cn:8080" />
<server url="http://speedtest.dukekunshan.edu.cn:8080/speedtest/upload.php" lat="31.3856" lon="120.9807" name="Kunshan" country="China" cc="CN" sponsor="Duke Kunshan University" id="30852"  host="speedtest.dukekunshan.edu.cn:8080" />
<server url="http://cmnet-speed.com:8080/speedtest/upload.php" lat="31.5667" lon="120.3000" name="Wuxi" country="China" cc="CN" sponsor="China Mobile 5G" id="26850"  host="cmnet-speed.com:8080" />
<server url="http://changzhou.bestlink.com.cn:8080/speedtest/upload.php" lat="31.8112" lon="119.9741" name="ChangZhou" country="China" cc="CN" sponsor="China Mobile 5G" id="32291"  host="changzhou.bestlink.com.cn:8080" />
<server url="http://mygod998.vicp.net:8080/speedtest/upload.php" lat="28.1961" lon="112.9722" name="Changsha" country="China" cc="CN" sponsor="Hunan Telecom 5G" id="28225" host="mygod998.vicp.net:8080"/>
<server url="http://speedtest01.hn165.com:8080/speedtest/upload.php" lat="28.1961" lon="112.9722" name="Changsha" country="China" cc="CN" sponsor="湖南联通5G" id="4870" host="speedtest01.hn165.com:8080"/>
<server url="http://upload1.testspeed.kaopuyun.com:8080/speedtest/upload.php" lat="26.0761" lon="119.3064" name="Fuzhou" country="China" cc="CN" sponsor="China Unicom FuJian" id="4884" host="upload1.testspeed.kaopuyun.com:8080"/>
<server url="http://cugspeed.chinaunicomglobal.com:8080/speedtest/upload.php" lat="22.2800" lon="114.1588" name="TKO" country="China" cc="CN" sponsor="China Unicom Global Limited" id="37695" host="cugspeed.chinaunicomglobal.com:8080"/>
<server url="http://www.suntechspeedtest.com.prod.hosts.ooklaserver.net:8080/speedtest/upload.php" lat="22.2500" lon="114.1667" name="Hong Kong" country="China" cc="HK" sponsor="STC" id="1536" host="suntechspeedtest.com:8080"/>
<server url="http://speedtest.75510010.com:8080/speedtest/upload.php" lat="22.5333" lon="114.1333" name="ShenZhen" country="China" cc="CN" sponsor="ShenZhen Unicom" id="16192" host="speedtest.75510010.com:8080"/>
<server url="http://gdspeedtest.com:8080/speedtest/upload.php" lat="23.1333" lon="113.2667" name="Guangzhou" country="China" cc="CN" sponsor="ChinaTelecom 5G" id="27594" host="gdspeedtest.com:8080"/>
<server url="http://speedtest1.gzuni.com:8080/speedtest/upload.php" lat="23.1333" lon="113.2667" name="Guangzhou" country="China" cc="CN" sponsor="Guangzhou Unicom 5G" id="26678" host="speedtest1.gzuni.com:8080"/>
<server url="http://speedtest1.gd.chinamobile.com:8080/speedtest/upload.php" lat="23.1333" lon="113.2667" name="Guangzhou" country="China" cc="CN" sponsor="China Mobile,Guangdong" id="6611" host="speedtest1.gd.chinamobile.com:8080"/>
<server url="http://speed4.gxmenjin.com:8080/speedtest/upload.php" lat="22.8167" lon="108.3167" name="Nanning" country="China" cc="CN" sponsor="GX-Telecom" id="27810" host="speed4.gxmenjin.com:8080"/>
<server url="http://speedtest1.gx.chinamobile.com:8080/speedtest/upload.php" lat="22.8167" lon="108.3167" name="Nanning" country="China" cc="CN" sponsor="GX ChinaMobile" id="15863" host="speedtest1.gx.chinamobile.com:8080"/>
<server url="http://121.31.15.130:8080/speedtest/upload.php" lat="22.8167" lon="108.3167" name="Nanning" country="China" cc="CN" sponsor="GX-Unicom" id="5674" host="121.31.15.130:8080"/>
</servers>
</settings>
